[
  {
    "id": 100,
    "name": "Bergmans Gata",
    "city_name": "Malmö",
    "location": {
      "type": "Point",
      "coordinates": [
        55.60548069159668,
        13.00600524084632
      ]
    },
    "bikes": [
      100,
      249,
      398
    ],
    "capacity": 14
  },
  {
    "id": 101,
    "name": "Samuelssons Väg",
    "city_name": "Malmö",
    "location": {
      "type": "Point",
      "coordinates": [
        55.606461713926876,
        12.999474313820372
      ]
    },
    "bikes": [
      101,
      250,
      399
    ],
    "capacity": 44
  },
  {
    "id": 102,
    "name": "Berits Gata",
    "city_name": "Malmö",
    "location": {
      "type": "Point",
      "coordinates": [
        55.60764996163556,
        13.003962797375607
      ]
    },
    "bikes": [
      102,
      251,
      400
    ],
    "capacity": 40
  },
  {
    "id": 103,
    "name": "Louises Väg",
    "city_name": "Malmö",
    "location": {
      "type": "Point",
      "coordinates": [
        55.602935681108846,
        12.999484173207037
      ]
    },
    "bikes": [
      103,
      252,
      401
    ],
    "capacity": 21
  },
  {
    "id": 104,
    "name": "Undre Nyvägen",
    "city_name": "Malmö",
    "location": {
      "type": "Point",
      "coordinates": [
        55.6050913681195,
        13.019301369020809
      ]
    },
    "bikes": [
      104,
      253,
      402
    ],
    "capacity": 17
  },
  {
    "id": 105,
    "name": "Berggrens Väg",
    "city_name": "Malmö",
    "location": {
      "type": "Point",
      "coordinates": [
        55.60839010522915,
        13.013593418661458
      ]
    },
    "bikes": [
      105,
      254,
      403
    ],
    "capacity": 16
  },
  {
    "id": 106,
    "name": "Skogsgärdet",
    "city_name": "Malmö",
    "location": {
      "type": "Point",
      "coordinates": [
        55.607323843656815,
        13.028301726385251
      ]
    },
    "bikes": [
      106,
      255,
      404
    ],
    "capacity": 19
  },
  {
    "id": 107,
    "name": "Nyströms Gata",
    "city_name": "Malmö",
    "location": {
      "type": "Point",
      "coordinates": [
        55.61378958059842,
        12.980856588823372
      ]
    },
    "bikes": [
      107,
      256,
      405
    ],
    "capacity": 45
  },
  {
    "id": 108,
    "name": "Västra Bäckgärdet",
    "city_name": "Malmö",
    "location": {
      "type": "Point",
      "coordinates": [
        55.60660772412271,
        12.985905436714006
      ]
    },
    "bikes": [
      108,
      257,
      406
    ],
    "capacity": 29
  },
  {
    "id": 109,
    "name": "Agness Väg",
    "city_name": "Malmö",
    "location": {
      "type": "Point",
      "coordinates": [
        55.595365319560415,
        12.961620113894838
      ]
    },
    "bikes": [
      109,
      258,
      407
    ],
    "capacity": 37
  },
  {
    "id": 110,
    "name": "Undre Bäckgärdet",
    "city_name": "Malmö",
    "location": {
      "type": "Point",
      "coordinates": [
        55.595270843762904,
        13.013298467408475
      ]
    },
    "bikes": [
      110,
      259,
      408
    ],
    "capacity": 13
  },
  {
    "id": 111,
    "name": "Mariannes Väg",
    "city_name": "Malmö",
    "location": {
      "type": "Point",
      "coordinates": [
        55.591651839809884,
        13.021207553243869
      ]
    },
    "bikes": [
      111,
      260,
      409
    ],
    "capacity": 50
  },
  {
    "id": 112,
    "name": "Ekvägen",
    "city_name": "Malmö",
    "location": {
      "type": "Point",
      "coordinates": [
        55.59180134444708,
        13.006517672437838
      ]
    },
    "bikes": [
      112,
      261,
      410
    ],
    "capacity": 31
  },
  {
    "id": 113,
    "name": "Hammarvägen",
    "city_name": "Malmö",
    "location": {
      "type": "Point",
      "coordinates": [
        55.58907404536208,
        13.009667586209844
      ]
    },
    "bikes": [
      113,
      262,
      411
    ],
    "capacity": 18
  },
  {
    "id": 114,
    "name": "Almedalsvägen",
    "city_name": "Malmö",
    "location": {
      "type": "Point",
      "coordinates": [
        55.59446342847281,
        13.00263671840196
      ]
    },
    "bikes": [
      114,
      263,
      412
    ],
    "capacity": 22
  },
  {
    "id": 115,
    "name": "Rosenholm",
    "city_name": "Malmö",
    "location": {
      "type": "Point",
      "coordinates": [
        55.59930458701467,
        13.00414787141986
      ]
    },
    "bikes": [
      115,
      264,
      413
    ],
    "capacity": 25
  },
  {
    "id": 116,
    "name": "Västanvägen",
    "city_name": "Malmö",
    "location": {
      "type": "Point",
      "coordinates": [
        55.59986542095473,
        13.011433301951996
      ]
    },
    "bikes": [
      116,
      265,
      414
    ],
    "capacity": 30
  },
  {
    "id": 117,
    "name": "Tullgatan",
    "city_name": "Malmö",
    "location": {
      "type": "Point",
      "coordinates": [
        55.60205222399304,
        12.978373233803751
      ]
    },
    "bikes": [
      117,
      266,
      415
    ],
    "capacity": 24
  },
  {
    "id": 118,
    "name": "Grönegatan",
    "city_name": "Malmö",
    "location": {
      "type": "Point",
      "coordinates": [
        55.597137928395995,
        12.988499549885262
      ]
    },
    "bikes": [
      118,
      267,
      416
    ],
    "capacity": 20
  }
]