[
  {
    "id": 1,
    "name": "Bergmans Gata",
    "city_name": "Malmö",
    "location": {
      "type": "Point",
      "coordinates": [
        55.60548069159668,
        13.00600524084632
      ]
    },
    "bikes": [],
    "capacity": 14
  },
  {
    "id": 96,
    "name": "Samuelssons Väg",
    "city_name": "Malmö",
    "location": {
      "type": "Point",
      "coordinates": [
        55.606461713926876,
        12.999474313820372
      ]
    },
    "bikes": [],
    "capacity": 44
  },
  {
    "id": 38,
    "name": "Berits Gata",
    "city_name": "Malmö",
    "location": {
      "type": "Point",
      "coordinates": [
        55.60764996163556,
        13.003962797375607
      ]
    },
    "bikes": [],
    "capacity": 40
  },
  {
    "id": 49,
    "name": "Louises Väg",
    "city_name": "Malmö",
    "location": {
      "type": "Point",
      "coordinates": [
        55.602935681108846,
        12.999484173207037
      ]
    },
    "bikes": [],
    "capacity": 21
  },
  {
    "id": 82,
    "name": "Undre Nyvägen",
    "city_name": "Malmö",
    "location": {
      "type": "Point",
      "coordinates": [
        55.6050913681195,
        13.019301369020809
      ]
    },
    "bikes": [],
    "capacity": 17
  },
  {
    "id": 99,
    "name": "Berggrens Väg",
    "city_name": "Malmö",
    "location": {
      "type": "Point",
      "coordinates": [
        55.60839010522915,
        13.013593418661458
      ]
    },
    "bikes": [],
    "capacity": 16
  },
  {
    "id": 35,
    "name": "Skogsgärdet",
    "city_name": "Malmö",
    "location": {
      "type": "Point",
      "coordinates": [
        55.607323843656815,
        13.028301726385251
      ]
    },
    "bikes": [],
    "capacity": 19
  },
  {
    "id": 11,
    "name": "Nyströms Gata",
    "city_name": "Malmö",
    "location": {
      "type": "Point",
      "coordinates": [
        55.61378958059842,
        12.980856588823372
      ]
    },
    "bikes": [],
    "capacity": 45
  },
  {
    "id": 77,
    "name": "Västra Bäckgärdet",
    "city_name": "Malmö",
    "location": {
      "type": "Point",
      "coordinates": [
        55.60660772412271,
        12.985905436714006
      ]
    },
    "bikes": [],
    "capacity": 29
  },
  {
    "id": 79,
    "name": "Agness Väg",
    "city_name": "Malmö",
    "location": {
      "type": "Point",
      "coordinates": [
        55.595365319560415,
        12.961620113894838
      ]
    },
    "bikes": [],
    "capacity": 37
  },
  {
    "id": 63,
    "name": "Undre Bäckgärdet",
    "city_name": "Malmö",
    "location": {
      "type": "Point",
      "coordinates": [
        55.595270843762904,
        13.013298467408475
      ]
    },
    "bikes": [],
    "capacity": 13
  },
  {
    "id": 22,
    "name": "Mariannes Väg",
    "city_name": "Malmö",
    "location": {
      "type": "Point",
      "coordinates": [
        55.591651839809884,
        13.021207553243869
      ]
    },
    "bikes": [],
    "capacity": 50
  },
  {
    "id": 30,
    "name": "Ekvägen",
    "city_name": "Malmö",
    "location": {
      "type": "Point",
      "coordinates": [
        55.59180134444708,
        13.006517672437838
      ]
    },
    "bikes": [],
    "capacity": 31
  },
  {
    "id": 105,
    "name": "Hammarvägen",
    "city_name": "Malmö",
    "location": {
      "type": "Point",
      "coordinates": [
        55.58907404536208,
        13.009667586209844
      ]
    },
    "bikes": [],
    "capacity": 18
  },
  {
    "id": 106,
    "name": "Almedalsvägen",
    "city_name": "Malmö",
    "location": {
      "type": "Point",
      "coordinates": [
        55.59446342847281,
        13.00263671840196
      ]
    },
    "bikes": [],
    "capacity": 22
  },
  {
    "id": 107,
    "name": "Rosenholm",
    "city_name": "Malmö",
    "location": {
      "type": "Point",
      "coordinates": [
        55.59930458701467,
        13.00414787141986
      ]
    },
    "bikes": [],
    "capacity": 25
  },
  {
    "id": 108,
    "name": "Västanvägen",
    "city_name": "Malmö",
    "location": {
      "type": "Point",
      "coordinates": [
        55.59986542095473,
        13.011433301951996
      ]
    },
    "bikes": [],
    "capacity": 30
  },
  {
    "id": 109,
    "name": "Tullgatan",
    "city_name": "Malmö",
    "location": {
      "type": "Point",
      "coordinates": [
        55.60205222399304,
        12.978373233803751
      ]
    },
    "bikes": [],
    "capacity": 24
  },
  {
    "id": 110,
    "name": "Grönegatan",
    "city_name": "Malmö",
    "location": {
      "type": "Point",
      "coordinates": [
        55.597137928395995,
        12.988499549885262
      ]
    },
    "bikes": [],
    "capacity": 20
  }
]